[
  { "city": "Madrid", "latitude": 40.4168, "longitude": -3.7038 },
  { "city": "Barcelona", "latitude": 41.3851, "longitude": 2.1734 },
  { "city": "Valencia", "latitude": 39.4699, "longitude": -0.3763 },
  { "city": "Seville", "latitude": 37.3886, "longitude": -5.9823 },
  { "city": "Zaragoza", "latitude": 41.6488, "longitude": -0.8891 },
  { "city": "Málaga", "latitude": 36.7213, "longitude": -4.4214 },
  { "city": "Murcia", "latitude": 37.9922, "longitude": -1.1307 },
  { "city": "Palma de Mallorca", "latitude": 39.5696, "longitude": 2.6502 },
  {
    "city": "Las Palmas de Gran Canaria",
    "latitude": 28.1235,
    "longitude": -15.4363
  },
  { "city": "Bilbao", "latitude": 43.263, "longitude": -2.9349 },
  { "city": "Alicante", "latitude": 38.3452, "longitude": -0.481 },
  { "city": "Córdoba", "latitude": 37.8882, "longitude": -4.7794 },
  { "city": "Valladolid", "latitude": 41.6523, "longitude": -4.7245 },
  { "city": "Vigo", "latitude": 42.2406, "longitude": -8.7207 },
  { "city": "Gijón", "latitude": 43.5322, "longitude": -5.6611 },
  { "city": "Salamanca", "latitude": 40.9701, "longitude": -5.6635 },
  { "city": "San Sebastián", "latitude": 43.3183, "longitude": -1.9812 },
  { "city": "Toledo", "latitude": 39.8628, "longitude": -4.0273 },
  { "city": "León", "latitude": 42.5987, "longitude": -5.5671 },
  { "city": "Oviedo", "latitude": 43.3619, "longitude": -5.8494 },
  { "city": "Pamplona", "latitude": 42.8125, "longitude": -1.6458 },
  { "city": "Almería", "latitude": 36.834, "longitude": -2.4637 },
  { "city": "Huelva", "latitude": 37.2614, "longitude": -6.9447 },
  { "city": "Burgos", "latitude": 42.3439, "longitude": -3.6969 },
  { "city": "Santander", "latitude": 43.4623, "longitude": -3.8099 },
  {
    "city": "Castellón de la Plana",
    "latitude": 39.9864,
    "longitude": -0.0513
  },
  { "city": "Logroño", "latitude": 42.4668, "longitude": -2.4449 },
  { "city": "Huesca", "latitude": 42.1401, "longitude": -0.4089 },
  { "city": "Tarragona", "latitude": 41.1189, "longitude": 1.2445 },
  { "city": "Ciudad Real", "latitude": 38.986, "longitude": -3.9275 }
]
